[
    {
      "id": "pune_jn",
      "name": "Pune Junction Railway Station",
      "coords": { "latitude": 18.5286, "longitude": 73.8745 },
      "description": "Wheelchair accessible, elevators available"
    },
    {
      "id": "shivajinagar",
      "name": "Shivajinagar Railway Station",
      "coords": { "latitude": 18.5331, "longitude": 73.854 },
      "description": "Check ramps, elevators under maintenance"
    },
    {
      "id": "swargate_bus",
      "name": "Swargate Bus Terminal",
      "coords": { "latitude": 18.5057, "longitude": 73.8562 },
      "description": "Wheelchair accessible, no elevators"
    },
    {
      "id": "pune_metro_civilcourt",
      "name": "Civil Court Metro Station",
      "coords": { "latitude": 18.5312, "longitude": 73.8585 },
      "description": "Metro station, elevators and tactile paving available"
    },
    {
      "id": "vanaz_metro",
      "name": "Vanaz Metro Station",
      "coords": { "latitude": 18.5072, "longitude": 73.8073 },
      "description": "Wheelchair accessible, lifts working, tactile tiles"
    },
    {
      "id": "pcmc_metro",
      "name": "PCMC Metro Station",
      "coords": { "latitude": 18.6281, "longitude": 73.7997 },
      "description": "Accessible toilets, elevators available"
    },
    {
      "id": "katraj_bus",
      "name": "Katraj Bus Depot",
      "coords": { "latitude": 18.4575, "longitude": 73.8652 },
      "description": "Wheelchair accessible, ramps available"
    },
    {
      "id": "airport",
      "name": "Pune International Airport (Lohegaon)",
      "coords": { "latitude": 18.5814, "longitude": 73.9207 },
      "description": "Full accessibility with lifts, ramps, and audio cues"
    },
    {
      "id": "hadapsar_bus",
      "name": "Hadapsar Gadital Bus Stand",
      "coords": { "latitude": 18.4974, "longitude": 73.926 },
      "description": "Wheelchair accessible, limited ramps"
    },
    {
      "id": "kothrud_bus",
      "name": "Kothrud Depot",
      "coords": { "latitude": 18.5077, "longitude": 73.8072 },
      "description": "Accessible buses, ramps at entry"
    }
]